City_ID,City,Lat,Lng,Max Temp,Humidity,Cloudiness,Wind Speed,Country,Date
0,grytviken,-54.2811,-36.5092,268.33,83,98,4.63,GS,1691429819
1,bredasdorp,-34.5322,20.0403,284.46,83,0,1.52,ZA,1691429819
2,yellowknife,62.456,-114.3525,291.44,48,75,4.63,CA,1691429820
3,hamilton,39.1834,-84.5333,298.76,91,100,8.75,US,1691429820
4,patacamaya,-17.2333,-67.9167,288.0,20,5,3.14,BO,1691429820
5,waitangi,-43.9535,-176.5597,280.83,59,100,5.47,NZ,1691429821
6,muynoq,43.7683,59.0214,298.19,61,1,2.5,UZ,1691429605
7,atafu village,-8.5421,-172.5159,301.28,72,21,6.1,TK,1691429778
8,saint-philippe,-21.3585,55.7679,292.92,81,98,7.02,RE,1691429822
9,arraial do cabo,-22.9661,-42.0278,304.13,48,0,6.69,BR,1691429823
10,edinburgh of the seven seas,-37.0676,-12.3116,286.37,75,68,11.91,SH,1691429823
11,langepas,61.2544,75.2124,291.43,59,100,1.88,RU,1691429823
12,ust-nera,64.5667,143.2,279.67,60,94,2.31,RU,1691429824
13,papatowai,-46.5619,169.4708,278.11,86,100,5.76,NZ,1691429825
14,invercargill,-46.4,168.35,277.6,90,100,1.79,NZ,1691429565
15,east london,-33.0153,27.9116,290.67,88,20,2.57,ZA,1691429826
16,san jose de jachal,-30.2406,-68.7469,288.85,25,7,2.05,AR,1691429826
17,rio preto da eva,-2.6994,-59.6997,312.31,24,11,2.1,BR,1691429827
18,puerto ayora,-0.7393,-90.3518,302.13,82,53,3.58,EC,1691429827
19,pathein,16.7833,94.7333,299.41,85,100,3.73,MM,1691429827
20,touros,-5.1989,-35.4608,299.44,80,4,9.92,BR,1691429828
21,port-aux-francais,-49.35,70.2167,277.59,92,100,11.39,TF,1691429828
22,tiksi,71.6872,128.8694,278.91,70,28,1.08,RU,1691429829
23,milford haven,51.7128,-5.0341,290.72,81,100,6.19,GB,1691429829
24,vorgashor,67.5833,63.95,284.78,93,25,4.32,RU,1691429830
25,adamstown,-25.066,-130.1015,293.4,71,7,2.57,PN,1691429699
26,le touquet-paris-plage,50.5243,1.5857,292.69,72,78,5.66,FR,1691429830
27,blackmans bay,-43.0167,147.3167,280.11,91,35,1.81,AU,1691429831
28,hithadhoo,-0.6,73.0833,301.07,75,67,2.53,MV,1691429831
29,hasaki,35.7333,140.8333,301.1,90,89,3.45,JP,1691429766
30,hadibu,12.65,54.0333,298.93,79,27,8.26,YE,1691429832
31,dakhla,23.6848,-15.958,297.16,69,2,6.17,EH,1691429833
32,miles city,46.4083,-105.8406,292.69,63,100,0.0,US,1691429833
33,gushu,31.5598,118.4829,300.14,94,4,2.41,CN,1691429834
34,okha,53.5739,142.9478,288.2,78,5,2.09,RU,1691429834
35,bairnsdale,-37.8333,147.6167,277.23,97,8,1.69,AU,1691429834
36,puerto natales,-51.7236,-72.4875,275.44,76,100,1.95,CL,1691429835
37,taltal,-25.4,-70.4833,289.23,80,25,3.61,CL,1691429835
38,avarua,-21.2078,-159.775,294.18,83,20,1.54,CK,1691429836
39,berezovyy,51.6667,135.7,288.21,57,37,1.39,RU,1691429836
40,college,64.8569,-147.8028,295.49,71,100,3.09,US,1691429837
41,ushuaia,-54.8,-68.3,274.96,69,0,1.54,AR,1691429837
42,bilibino,68.0546,166.4372,275.53,94,100,2.63,RU,1691429838
43,fandriana,-20.2333,47.3833,285.46,95,93,2.05,MG,1691429838
44,lihue,21.9789,-159.3672,299.92,85,100,5.66,US,1691429839
45,usinsk,65.9939,57.5281,288.22,66,100,6.42,RU,1691429839
46,akureyri,65.6835,-18.0878,291.11,42,40,3.6,IS,1691429839
47,kupang,-10.1667,123.5833,297.07,76,2,7.56,ID,1691429840
48,severo-yeniseyskiy,60.3725,93.0408,283.55,91,99,1.25,RU,1691429840
49,pacasmayo,-7.4006,-79.5714,296.47,67,50,6.05,PE,1691429841
50,jamestown,42.097,-79.2353,294.92,96,100,7.2,US,1691429821
51,bethel,41.3712,-73.414,298.37,90,100,1.54,US,1691429842
52,hilo,19.7297,-155.09,303.31,89,20,2.68,US,1691429842
53,sol'-iletsk,51.1631,54.9918,298.08,48,14,7.01,RU,1691429843
54,petropavlovsk-kamchatsky,53.0452,158.6483,281.48,100,0,2.0,RU,1691429843
55,aasiaat,68.7098,-52.8699,277.09,68,22,3.5,GL,1691429844
56,port elizabeth,-33.918,25.5701,290.98,94,20,5.14,ZA,1691429642
57,santiago de cao,-7.9589,-79.2392,296.22,73,75,4.63,PE,1691429845
58,belmonte,-15.8631,-38.8828,296.78,84,99,1.47,BR,1691429845
59,codrington,-38.2667,141.9667,278.69,93,2,2.35,AU,1691429845
60,gadzhiyevo,69.2551,33.3362,290.14,69,65,5.9,RU,1691429742
61,la passe,45.5549,-0.8967,298.28,57,44,5.59,FR,1691429846
62,west island,-12.1568,96.8225,299.14,83,40,6.69,CC,1691429847
63,darchula,29.8412,80.5287,297.51,96,82,0.46,NP,1691429847
64,altai,46.3722,96.2583,290.39,38,35,1.27,MN,1691429559
65,olyokminsk,60.3736,120.4264,289.15,93,21,1.01,RU,1691429848
66,hermanus,-34.4187,19.2345,286.93,77,0,1.44,ZA,1691429849
67,turabah,21.2141,41.6331,303.43,16,4,9.14,SA,1691429849
68,alto araguaia,-17.3147,-53.2153,307.68,19,14,2.97,BR,1691429849
69,badger,64.8,-147.5333,295.45,75,100,3.09,US,1691429680
70,punta arenas,-53.15,-70.9167,276.51,75,99,3.47,CL,1691429750
71,udachny,66.4167,112.4,289.51,58,97,1.56,RU,1691429851
72,thompson,55.7435,-97.8558,288.24,77,100,3.09,CA,1691429851
73,georgetown,5.4112,100.3354,301.11,89,20,1.03,MY,1691429630
74,gagarin,55.5529,34.9954,298.63,54,0,8.79,RU,1691429852
75,port hedland,-20.3167,118.5667,290.18,72,5,3.6,AU,1691429852
76,mount gambier,-37.8333,140.7667,277.83,96,3,1.65,AU,1691429853
77,viru,-8.4167,-78.75,300.1,47,5,4.38,PE,1691429853
78,ribeira grande,38.5167,-28.7,299.37,69,40,4.12,PT,1691429854
79,bonthe,7.5264,-12.505,297.84,90,100,3.56,SL,1691429854
80,margaret river,-33.95,115.0667,290.45,88,80,10.56,AU,1691429855
81,horta,38.5333,-28.6333,298.95,75,40,4.12,PT,1691429676
82,nuuk,64.1835,-51.7216,281.49,81,0,3.09,GL,1691429620
83,cabanglasan,8.1214,125.3275,293.76,97,94,1.37,PH,1691429856
84,lospalos,-8.5186,127.0025,292.78,81,55,3.11,TL,1691429857
85,klyuchi,52.2667,79.1667,291.47,44,0,3.38,RU,1691429857
86,zelenogorsk,56.1147,94.5861,288.6,75,30,1.39,RU,1691429857
87,rouissat,31.9243,5.3502,313.19,13,0,4.63,DZ,1691429858
88,aridaia,40.9731,22.0564,300.79,32,53,0.42,GR,1691429858
89,iqaluit,63.7506,-68.5145,283.0,76,20,3.09,CA,1691429859
90,tughyl,47.7252,84.2063,293.04,74,70,4.18,KZ,1691429859
91,chengdu,30.6667,104.0667,301.09,78,0,1.0,CN,1691429860
92,dunedin,-45.8742,170.5036,277.48,80,100,4.92,NZ,1691429689
93,vargashi,55.3556,65.8467,292.25,58,70,2.48,RU,1691429860
94,bandarban,22.1965,92.2262,300.99,98,100,2.0,BD,1691429861
95,port douglas,-16.4833,145.4667,294.02,81,86,7.73,AU,1691429861
96,nagqu,31.5,92.0,279.47,87,100,1.02,CN,1691429862
97,port mathurin,-19.6833,63.4167,295.65,65,86,10.88,MU,1691429692
98,quepos,9.4236,-84.1652,300.32,85,100,2.08,CR,1691429862
99,wotho,10.1657,166.0102,300.48,82,100,4.29,MH,1691429863
100,kalawit,8.0667,122.5167,298.31,88,29,1.93,PH,1691429863
101,cabo san lucas,22.8909,-109.9124,308.49,68,20,3.09,MX,1691429609
102,tralee,52.2704,-9.7026,289.29,77,40,4.63,IE,1691429864
103,the pas,53.8251,-101.2541,291.16,77,0,3.6,CA,1691429865
104,kruisfontein,-34.0033,24.7314,289.75,93,0,1.46,ZA,1691429865
105,kuala perlis,6.4,100.1333,301.14,79,100,5.65,MY,1691429865
106,san patricio,28.017,-97.5169,309.55,36,1,7.41,US,1691429866
107,lautoka,-17.6167,177.4667,293.07,88,40,3.09,FJ,1691429866
108,usogorsk,63.4106,48.6872,286.84,82,3,2.33,RU,1691429867
109,katabu,-4.9333,122.5167,294.57,89,6,1.77,ID,1691429867
110,tharangambadi,11.0319,79.8528,301.67,78,96,7.5,IN,1691429868
111,bosaso,11.2842,49.1816,303.92,70,6,3.03,SO,1691429868
112,nyandoma,61.669,40.1991,292.17,82,16,2.58,RU,1691429868
113,qaqortoq,60.7167,-46.0333,280.14,79,27,2.33,GL,1691429869
114,nouadhibou,20.931,-17.0347,298.14,65,0,6.69,MR,1691429869
115,bodo,67.28,14.405,287.47,97,75,2.57,NO,1691429870
116,damboa,11.156,12.7576,299.87,67,99,1.9,NG,1691429870
117,viedma,-40.8135,-62.9967,284.4,26,1,3.06,AR,1691429871
118,enewetak,11.3474,162.3373,299.4,88,99,8.88,MH,1691429871
119,holualoa,19.6228,-155.9522,299.74,72,0,3.09,US,1691429871
120,pudozh,61.8099,36.5345,296.6,81,1,3.46,RU,1691429872
121,greymouth,-42.4667,171.2,282.8,69,66,6.86,NZ,1691429872
122,mugia,43.1041,-9.2179,304.77,82,0,14.24,ES,1691429873
123,tura,25.5198,90.2201,297.12,98,100,1.75,IN,1691429873
124,talnakh,69.4865,88.3972,290.49,56,40,1.55,RU,1691429874
125,itoman,26.1247,127.6694,300.36,94,100,10.29,JP,1691429874
126,puerto armuelles,8.2833,-82.8667,301.14,91,98,1.34,PA,1691429874
127,launceston,-41.45,147.1667,279.9,100,100,1.03,AU,1691429875
128,christchurch,-43.5333,172.6333,276.45,81,68,3.6,NZ,1691429875
129,karratha,-20.7377,116.8463,295.81,75,3,3.47,AU,1691429876
130,bardai,11.65,7.2333,296.87,83,88,3.53,NG,1691429876
131,skien,59.2075,9.6105,288.7,95,100,4.52,NO,1691429877
132,uturoa,-16.7333,-151.4333,298.95,75,100,4.38,PF,1691429877
133,lebu,-37.6167,-73.65,285.91,69,100,1.94,CL,1691429877
134,tabalah,19.95,42.4,308.73,21,26,5.06,SA,1691429878
135,colonia,50.9333,6.95,292.57,63,40,5.14,DE,1691429763
136,kodiak,57.79,-152.4072,285.88,94,100,4.63,US,1691429879
137,qamdo,31.1667,97.2333,279.48,80,55,1.43,CN,1691429879
138,jinchang,38.4953,102.1739,298.67,40,88,1.96,CN,1691429879
139,primorskiy,43.0983,131.5875,289.68,97,100,1.12,RU,1691429880
140,tazacorte,28.629,-17.9293,298.79,72,75,3.13,ES,1691429880
141,nyurba,63.2842,118.3319,286.85,72,81,2.18,RU,1691429881
142,albany,42.6001,-73.9662,295.69,88,100,1.34,US,1691429647
143,sitka,57.0531,-135.33,289.09,82,40,1.54,US,1691429882
144,jalai nur,49.45,117.7,288.33,82,100,1.57,CN,1691429883
145,karema,-6.8205,30.4389,298.76,64,1,4.79,TZ,1691429883
146,morehead city,34.7229,-76.726,306.49,76,0,6.17,US,1691429883
147,rio grande,-32.035,-52.0986,288.21,67,75,8.26,BR,1691429628
148,buritis,-15.6178,-46.4233,306.11,17,0,1.06,BR,1691429884
149,sandnessjoen,66.0217,12.6316,287.44,94,75,6.17,NO,1691429885
150,birendranagar,28.6019,81.6339,296.38,94,77,1.03,NP,1691429885
151,melfort,52.8667,-104.6177,291.22,55,95,2.57,CA,1691429886
152,lakatoro,-16.0999,167.4164,294.92,88,100,1.62,VU,1691429886
153,stanley,54.868,-1.6985,289.7,69,20,7.2,GB,1691429653
154,whitehorse,60.7161,-135.0538,291.93,63,75,5.66,CA,1691429812
155,bhola,22.6833,90.65,299.86,90,100,3.45,BD,1691429888
156,barra de santo antonio,-9.4047,-35.5072,299.75,78,56,5.06,BR,1691429889
157,walvis bay,-22.9575,14.5053,298.68,19,0,3.6,NA,1691429889
158,hassi messaoud,31.6804,6.0729,313.07,11,0,4.12,DZ,1691429890
159,changji,44.0167,87.3167,301.59,39,0,3.0,CN,1691429716
160,geraldton,-28.7667,114.6,291.38,82,100,4.63,AU,1691429891
161,koltushi,59.9297,30.6447,303.05,58,0,5.91,RU,1691429891
162,carnarvon,-24.8667,113.6333,293.47,79,20,2.67,AU,1691429892
163,ilulissat,69.2167,-51.1,284.16,46,20,2.06,GL,1691429892
164,afaahiti,-17.75,-149.2833,298.08,78,93,6.22,PF,1691429893
165,mazatlan,23.2167,-106.4167,305.88,79,40,2.57,MX,1691429703
166,ochakiv,46.6128,31.5498,299.97,38,16,5.69,UA,1691429894
167,new norfolk,-42.7826,147.0587,280.77,98,55,1.29,AU,1691429894
168,coahuayana de hidalgo,18.7,-103.6583,307.26,46,39,2.08,MX,1691429895
169,deschutes river woods,43.9915,-121.3584,293.87,66,0,2.06,US,1691429896
170,broken hill,-31.95,141.4333,280.44,66,36,3.17,AU,1691429896
171,skanes,35.7833,10.8,305.16,54,20,5.14,TN,1691429897
172,santiago de chuco,-8.15,-78.1833,293.08,34,13,5.99,PE,1691429897
173,salinopolis,-0.6136,-47.3561,300.82,80,98,6.02,BR,1691429897
174,puerto aysen,-45.4,-72.7,279.17,81,0,0.0,CL,1691429898
175,grand island,40.925,-98.342,297.31,57,0,2.57,US,1691429671
176,rawah,34.4816,41.9093,308.15,12,0,4.72,IQ,1691429899
177,mahibadhoo,3.7833,72.9667,300.9,79,60,4.98,MV,1691429899
178,moyamba,8.1667,-12.4333,296.45,97,100,1.38,SL,1691429900
179,urzhar,47.093,81.6294,293.44,76,96,2.4,KZ,1691429900
180,howard springs,-12.497,131.047,297.1,72,35,4.89,AU,1691429901
181,islamkot,24.6997,70.177,301.16,76,61,10.22,PK,1691429901
182,petoskey,45.3733,-84.9553,299.16,51,0,4.02,US,1691429781
183,yigo village,13.5361,144.8886,299.77,90,75,2.06,GU,1691429902
184,hawaiian paradise park,19.5933,-154.9731,299.2,96,20,2.06,US,1691429903
185,manali,13.1667,80.2667,304.2,81,100,5.27,IN,1691429903
186,teignmouth,50.5477,-3.4964,292.25,76,99,4.87,GB,1691429904
187,oyem,1.5995,11.5793,295.68,78,90,1.34,GA,1691429904
188,kudahuvadhoo,2.6708,72.8944,301.04,77,71,4.84,MV,1691429905
189,santa maria,-29.6842,-53.8069,285.76,88,100,3.6,BR,1691429673
190,longyearbyen,78.2186,15.6401,282.06,87,75,1.54,SJ,1691429906
191,antsiranana,-12.2787,49.2917,295.74,76,24,6.22,MG,1691429906
192,port alfred,-33.5906,26.891,289.92,92,3,0.89,ZA,1691429907
193,muisne,0.6,-80.0333,300.0,78,99,5.45,EC,1691429907
194,nelson bay,-32.7167,152.15,286.48,98,10,4.02,AU,1691429908
195,hammerfest,70.6634,23.6821,291.4,72,75,2.57,NO,1691429908
196,amga,60.8953,131.9608,283.59,51,15,2.08,RU,1691429908
197,carauari,-4.8828,-66.8958,309.48,36,98,0.97,BR,1691429909
198,shingu,33.7333,135.9833,299.85,93,96,5.04,JP,1691429909
199,vila franca do campo,37.7167,-25.4333,297.38,61,84,1.73,PT,1691429910
200,machico,32.7,-16.7667,301.0,77,75,1.54,PT,1691429910
201,kerikeri,-35.2268,173.9474,282.34,90,37,2.74,NZ,1691429911
202,gereida,11.2811,25.1414,296.98,87,99,5.8,SD,1691429911
203,susuman,62.7833,148.1667,275.16,75,100,1.64,RU,1691429912
204,kampong speu,11.5,104.3333,298.33,83,100,2.76,KH,1691429912
205,fortuna,40.5982,-124.1573,293.9,92,100,4.12,US,1691429913
206,kharabali,47.4196,47.2568,304.2,24,0,4.88,RU,1691429913
207,isafjordur,66.0755,-23.124,288.17,55,20,1.54,IS,1691429913
208,tambopata,-12.7333,-69.1833,307.09,49,40,3.09,PE,1691429914
209,revda,56.801,59.9303,288.36,94,0,1.33,RU,1691429914
210,ta`u,-14.2336,-169.5144,299.73,78,64,3.02,AS,1691429915
211,namtsy,62.7161,129.6658,283.61,69,20,1.06,RU,1691429915
212,vilyuysk,63.7553,121.6247,287.4,74,2,1.88,RU,1691429916
213,acapulco de juarez,16.8634,-99.8901,304.05,66,20,1.54,MX,1691429749
214,medford,42.3265,-122.8756,299.4,55,0,0.89,US,1691429854
215,aquin,18.2833,-73.4,304.34,65,3,3.26,HT,1691429917
216,al hada,21.3675,40.2869,299.81,19,0,2.28,SA,1691429917
217,manati,18.4275,-66.4921,307.14,85,46,6.96,PR,1691429918
218,barah,13.7,30.3667,303.6,46,58,2.97,SD,1691429918
219,papao,-17.75,-149.55,298.97,75,100,5.67,PF,1691429919
220,huicheng,23.0385,116.2899,300.32,86,94,2.09,CN,1691429919
221,vadso,70.0744,29.7487,294.64,72,0,3.6,NO,1691429919
222,naama,33.2667,-0.3167,309.78,8,1,8.03,DZ,1691429920
223,yuzhno-kurilsk,44.0306,145.8556,287.5,92,98,4.61,RU,1691429920
224,sukumo,32.9333,132.7333,299.45,96,100,5.92,JP,1691429921
225,chonchi,-42.6128,-73.8092,285.71,63,96,1.6,CL,1691429921
226,quito,-0.2299,-78.5249,292.68,82,100,3.53,EC,1691429922
227,constantia,44.1833,28.65,300.76,65,1,5.66,RO,1691429645
228,kingston,17.997,-76.7936,307.73,66,40,10.29,JM,1691429645
229,ola,59.5833,151.2833,281.12,53,22,4.49,RU,1691429923
230,akhty,41.4597,47.7312,295.1,73,8,2.22,RU,1691429923
231,new plymouth,-39.0667,174.0833,281.93,73,100,4.33,NZ,1691429924
232,mesyagutovo,55.5303,58.2528,291.2,89,65,1.78,RU,1691429924
233,madimba,-10.4,40.3333,296.37,80,12,5.32,TZ,1691429924
234,shitanjing,39.2342,106.3439,296.59,59,42,6.07,CN,1691429925
235,sola,-13.8833,167.55,297.65,78,88,6.86,VU,1691429926
236,karasuk,53.7377,78.0403,290.27,56,2,2.91,RU,1691429926
237,kamiiso,41.8167,140.65,294.32,98,100,4.19,JP,1691429927
238,alice springs,-23.7,133.8833,279.9,76,2,0.0,AU,1691429927
239,arroyo,41.6096,-4.7969,307.08,20,0,2.57,ES,1691429927
240,puerto baquerizo moreno,-0.9,-89.6,299.7,69,75,6.69,EC,1691429928
241,tam ky,15.5667,108.4833,298.75,74,33,3.14,VN,1691429929
242,minas de marcona,-15.2119,-75.1103,291.62,56,5,5.95,PE,1691429929
243,nizhnesortymskiy,62.4397,71.7603,292.61,48,0,3.67,RU,1691429929
244,sakakah,29.9697,40.2064,307.91,11,0,4.63,SA,1691429930
245,ocean shores,46.9737,-124.1563,293.68,93,100,4.12,US,1691429930
246,daru,-9.0763,143.2092,294.7,92,62,2.07,PG,1691429931
247,canete,-37.8,-73.4,287.98,55,98,1.29,CL,1691429931
248,guatrache,-37.6678,-63.5302,286.1,27,0,3.32,AR,1691429932
249,igarka,67.4667,86.5833,288.47,68,100,3.16,RU,1691429932
250,ponta delgada,37.7333,-25.6667,297.55,73,40,2.06,PT,1691429932
251,lupane,-18.9315,27.807,293.01,32,41,1.51,ZW,1691429933
252,punta alta,-38.8759,-62.0736,285.97,39,1,1.95,AR,1691429848
253,piti village,13.4626,144.6933,300.64,92,100,2.06,GU,1691429934
254,selfoss,63.9331,-20.9971,288.17,63,66,2.2,IS,1691429935
255,mutuali,-14.8706,37.0044,294.51,57,100,2.42,MZ,1691429935
256,hotan,37.0997,79.9269,298.26,44,100,4.07,CN,1691429935
257,arevalo,41.0626,-4.7204,307.21,11,0,4.56,ES,1691429936
258,olonkinbyen,70.9221,-8.7187,277.54,83,14,3.04,SJ,1691429936
259,fort bragg,35.139,-79.006,306.04,58,20,5.14,US,1691429937
260,zheleznogorsk-ilimskiy,56.5768,104.1217,287.95,96,84,1.47,RU,1691429937
261,gornyy,55.1153,83.9059,288.5,66,19,1.55,RU,1691429938
262,fort st. john,56.2499,-120.8529,292.09,77,75,1.03,CA,1691429638
263,vilyuchinsk,52.9306,158.4028,282.3,89,47,4.01,RU,1691429938
264,lorengau,-2.0226,147.2712,300.84,74,95,6.98,PG,1691429939
265,happy valley-goose bay,53.3168,-60.3315,290.32,72,75,4.63,CA,1691429939
266,sinjar,36.3209,41.8754,309.47,17,0,6.31,IQ,1691429940
267,remire-montjoly,4.9167,-52.2667,305.17,58,18,6.69,GF,1691429940
268,ust'-kulom,61.6864,53.6902,289.01,74,29,3.92,RU,1691429941
269,linfen,36.0889,111.5189,299.72,60,91,0.38,CN,1691429942
270,fale old settlement,-9.3852,-171.2468,301.1,68,25,6.39,TK,1691429943
271,katsuura,35.1333,140.3,299.37,90,72,3.53,JP,1691429943
272,pacific grove,36.6177,-121.9166,297.81,86,0,4.02,US,1691429944
273,warrnambool,-38.3833,142.4833,276.67,89,0,2.56,AU,1691429945
274,itaituba,-4.2761,-55.9836,308.24,52,40,2.57,BR,1691429945
275,tamanrasset,22.785,5.5228,309.1,15,40,8.23,DZ,1691429945
276,yorkton,51.2167,-102.4677,294.06,64,75,4.63,CA,1691429751
277,iskateley,67.6803,53.1512,281.33,88,6,5.14,RU,1691429947
278,dhidhdhoo,6.8833,73.1,301.2,79,100,6.02,MV,1691429948
279,massena,44.9281,-74.8919,296.66,78,100,2.57,US,1691429763
280,nadigaon,26.1167,79.0333,300.89,74,95,5.82,IN,1691429948
281,wakkanai,45.4094,141.6739,289.87,90,100,3.13,JP,1691429949
282,st. john's,47.5649,-52.7093,290.19,94,100,9.26,CA,1691429911
283,kavaratti,10.5669,72.642,301.22,76,100,8.56,IN,1691429950
284,whiteville,34.3388,-78.7031,307.62,60,0,3.6,US,1691429695
285,kapa'a,22.0752,-159.319,300.33,89,100,5.66,US,1691429951
286,tibati,6.4667,12.6333,293.76,92,90,1.1,CM,1691429951
287,tazovsky,67.4667,78.7,288.17,63,0,2.89,RU,1691429952
288,santa ana,33.7456,-117.8678,307.87,65,0,2.06,US,1691429952
289,olinda,-8.0089,-34.8553,301.0,69,40,7.2,BR,1691429953
290,chynadiyovo,48.4818,22.8217,286.52,90,88,3.17,UA,1691429953
291,jha-jha,24.7667,86.3667,299.31,89,100,2.62,IN,1691429954
292,lata,40.1629,-8.3327,306.52,18,0,3.79,PT,1691429954
293,nikolayevsk-on-amure,53.1406,140.73,288.88,62,6,0.3,RU,1691429955
294,dennery,13.8996,-60.8879,305.2,95,75,10.29,LC,1691429955
295,krasnyy chikoy,50.3643,108.7512,285.8,96,37,1.38,RU,1691429956
296,la'ie,21.6477,-157.9253,300.13,86,19,8.1,US,1691429956
297,loikaw,19.6742,97.2094,293.34,98,100,1.56,MM,1691429957
298,mili,6.0815,171.735,300.88,79,100,4.15,MH,1691429958
299,yutan,28.25,112.55,299.96,94,100,1.72,CN,1691429958
300,utrik,11.2278,169.8474,301.45,75,73,8.23,MH,1691429959
301,shevchenko,48.5,35.0,300.61,38,0,2.35,UA,1691429959
302,kalaoa,19.7286,-155.9817,298.94,67,0,3.09,US,1691429960
303,acarau,-2.8856,-40.12,303.61,55,19,10.44,BR,1691429961
304,san antonio de pale,-1.4014,5.6325,296.15,74,15,3.09,GQ,1691429961
305,zeya,53.75,127.2667,289.53,53,100,0.93,RU,1691429962
306,ingeniero jacobacci,-41.3427,-69.5448,281.71,39,88,9.59,AR,1691429962
307,marsa alam,25.0757,34.8918,306.68,34,1,1.61,EG,1691429962
308,barakani,-12.1356,44.4317,297.64,75,32,5.55,KM,1691429963
309,szentlorinc,46.0402,17.9872,292.64,72,70,2.53,HU,1691429963
310,menongue,-14.6585,17.691,290.97,31,0,2.04,AO,1691429964
311,mount isa,-20.7333,139.5,284.02,66,86,3.09,AU,1691429964
312,sinabang,2.4803,96.3801,298.42,91,100,4.23,ID,1691429965
313,oshawa,43.9001,-78.8496,298.38,80,75,4.63,CA,1691429854
314,saipan,15.1355,145.701,300.54,100,40,0.0,MP,1691429966
315,vryburg,-26.9566,24.7284,287.07,20,0,2.49,ZA,1691429966
316,khamis mushait,18.3064,42.7292,297.49,64,0,2.57,SA,1691429967
317,caxito,-8.5785,13.6643,294.52,78,42,3.5,AO,1691429967
318,keflavik,64.0049,-22.5624,286.39,82,75,3.6,IS,1691429968
319,riviere-du-loup,47.8304,-69.5342,288.3,88,100,3.09,CA,1691429732
320,tual,-5.6667,132.75,299.09,76,38,9.49,ID,1691429969
321,strelka,58.0728,93.0344,285.56,86,39,1.52,RU,1691429969
322,cambria,35.5641,-121.0808,306.58,47,0,3.34,US,1691429969
323,trairi,-3.2778,-39.2689,305.59,40,33,8.33,BR,1691429970
324,nyrob,60.733,56.7202,289.63,83,34,2.96,RU,1691429970
325,tra vinh,9.9347,106.3453,298.99,89,0,2.91,VN,1691429971
326,talcahuano,-36.7167,-73.1167,286.97,51,0,4.12,CL,1691429971
327,lerwick,60.1545,-1.1494,287.15,65,16,5.31,GB,1691429972
328,grand falls-windsor,48.9332,-55.6649,291.76,77,100,3.13,CA,1691429972
329,konstantinovka,49.6167,127.9833,288.59,72,56,1.79,RU,1691429973
330,anadyr,64.75,177.4833,283.43,93,40,5.0,RU,1691429973
331,trincomalee,8.5711,81.2335,299.68,75,74,2.99,LK,1691429974
332,alakurtti,66.9672,30.3491,288.17,76,74,5.21,RU,1691429974
333,ha'il,27.5219,41.6907,309.16,13,0,5.14,SA,1691429975
334,brokopondo,4.75,-55.1667,306.57,45,6,1.11,SR,1691429975
335,librazhd-qender,41.1969,20.3356,296.16,84,34,0.69,AL,1691429976
336,tsimasham,27.0989,89.536,290.59,99,100,0.59,BT,1691429976
337,uzgen,40.7699,73.3007,293.31,64,77,3.35,KG,1691429977
338,necochea,-38.5473,-58.7368,281.49,54,6,3.13,AR,1691429977
339,nishinoomote,30.7333,131.0,301.13,87,95,17.86,JP,1691429978
340,ciudad guayana,8.3533,-62.6528,306.77,62,42,0.76,VE,1691429787
341,itapetininga,-23.5917,-48.0531,304.32,20,25,3.37,BR,1691429978
342,thoen,17.6129,99.2161,296.76,98,100,0.95,TH,1691429979
343,brazzaville,-4.2658,15.2832,304.17,32,98,1.73,CG,1691429980
344,dzuunharaa,48.8523,106.4579,288.4,89,33,1.55,MN,1691429980
345,matoury,4.8483,-52.3317,305.13,58,11,6.69,GF,1691429981
346,palikir - national government center,6.9248,158.1611,297.56,100,100,1.54,FM,1691429981
347,egilsstadir,65.2653,-14.3948,287.1,35,0,4.63,IS,1691429982
348,kalmunai,7.4167,81.8167,300.84,79,94,3.35,LK,1691429982
349,san julian,21.0167,-102.1667,296.41,52,2,0.98,MX,1691429983
350,ambalangoda,6.2355,80.0538,299.54,87,95,4.63,LK,1691429984
351,sao jose da coroa grande,-8.8978,-35.1478,298.77,77,29,5.55,BR,1691429984
352,nadym,65.5333,72.5167,291.45,62,8,4.9,RU,1691429985
353,puerto santa,-8.9906,-78.6456,295.63,67,54,3.84,PE,1691429985
354,arvayheer,46.2639,102.775,288.06,70,48,0.7,MN,1691429985
355,watampone,-4.5386,120.3279,296.69,83,59,1.42,ID,1691429986
356,shakhtinsk,49.71,72.5872,293.37,40,74,5.12,KZ,1691429987
357,sayre,41.979,-76.5155,301.62,83,96,4.48,US,1691429987
358,waddan,29.1614,16.139,305.12,25,0,8.78,LY,1691429988
359,cidade velha,14.9167,-23.6167,304.41,55,20,7.2,CV,1691429989
360,nadi,-17.8,177.4167,293.15,88,40,3.09,FJ,1691429989
361,punta del este,-34.9667,-54.95,284.21,65,40,7.2,UY,1691429990
362,boyolangu,-8.1181,111.8935,294.81,95,62,1.58,ID,1691429990
363,mount pearl,47.5166,-52.7813,289.73,93,100,9.26,CA,1691429991
364,nova sintra,14.8667,-24.7167,295.41,77,89,6.87,CV,1691429991
365,pingliang,35.5392,106.6861,293.22,97,97,2.68,CN,1691429957
366,constitucion,-35.3333,-72.4167,288.23,66,98,3.13,CL,1691429992
367,tshabong,-26.05,22.45,288.63,20,0,2.67,BW,1691429730
368,san rafael,-34.6177,-68.3301,288.53,23,45,4.96,AR,1691429993
369,nuku'alofa,-21.1333,-175.2,294.34,94,75,6.69,TO,1691429993
370,wailua homesteads,22.0669,-159.378,299.59,89,100,5.66,US,1691429994
371,mairang,25.5667,91.6333,289.49,97,99,1.34,IN,1691429994
372,barcelos,41.5388,-8.6151,312.55,30,0,2.79,PT,1691429994
373,taoudenni,22.6783,-3.9836,318.97,9,1,5.11,ML,1691429995
374,kirtland,36.7342,-108.3598,305.48,16,0,2.57,US,1691429995
375,luza,60.6308,47.2512,290.97,75,54,2.19,RU,1691429996
376,road town,18.4167,-64.6167,306.2,70,40,5.66,VG,1691429996
377,zavoronezhskoye,52.8801,40.5526,297.77,56,0,6.66,RU,1691429997
378,franklin,39.9667,-83.0166,299.44,85,100,4.63,US,1691429997
379,ust'-ilimsk,58.0006,102.6619,285.33,95,81,0.74,RU,1691429998
380,luderitz,-26.6481,15.1594,285.66,90,3,5.66,NA,1691429998
381,mejit,10.2753,170.8646,301.43,76,100,7.94,MH,1691429999
382,mhamid,29.82,-5.72,317.28,7,99,1.78,MA,1691429999
383,kangding,30.0513,101.9603,289.0,96,98,0.31,CN,1691429999
384,raseiniai,55.3736,23.1217,287.06,92,100,5.74,LT,1691430000
385,urucara,-2.5364,-57.76,312.54,23,86,2.75,BR,1691430001
386,dandeli,15.2667,74.6167,295.33,92,100,2.11,IN,1691430001
387,dudinka,69.4058,86.1778,290.72,49,28,2.62,RU,1691430002
388,saint-francois,46.4154,3.9054,293.84,40,0,1.54,FR,1691430003
389,strathalbyn,-35.2667,138.9,282.65,96,42,1.86,AU,1691430004
390,kulunda,52.566,78.9385,291.35,45,0,3.24,RU,1691430005
391,floro,61.5996,5.0328,285.19,76,75,10.8,NO,1691430006
392,camana,-16.6228,-72.7111,294.89,67,8,4.17,PE,1691430006
393,torres,-29.3353,-49.7269,292.52,87,78,5.07,BR,1691430007
394,grand-bassam,5.2118,-3.7388,299.13,84,68,3.73,CI,1691430008
395,villa dolores,-31.9459,-65.1896,294.12,18,0,5.89,AR,1691430009
396,makhambet,47.6667,51.5833,303.72,24,0,3.99,KZ,1691430009
397,santa elena de uairen,4.6167,-61.1333,301.74,49,33,5.06,VE,1691430010
398,teyateyaneng,-29.1472,27.7489,283.49,30,0,2.53,LS,1691430010
399,yekaterinburg,56.8575,60.6125,290.92,94,40,1.0,RU,1691429937
400,novo aripuana,-5.1206,-60.3797,310.3,29,87,1.8,BR,1691430011
401,crane,31.3974,-102.3501,311.1,19,8,8.14,US,1691430012
402,kasongo-lunda,-6.4667,16.8167,301.74,25,60,0.61,CD,1691430012
403,banes,20.9625,-75.7186,305.94,63,35,6.49,CU,1691430013
404,nahiyat al fuhud,30.9697,46.7228,313.28,13,0,7.29,IQ,1691430013
405,flying fish cove,-10.4217,105.6791,297.97,88,100,4.63,CX,1691430014
406,khor,47.8861,134.9464,288.92,67,87,2.06,RU,1691430014
407,hailun,47.45,126.9333,289.28,96,100,2.92,CN,1691430015
408,verdal,63.7933,11.4817,287.17,98,100,0.97,NO,1691430015
409,kota kinabalu,5.9749,116.0724,299.14,89,20,2.57,MY,1691430016
410,broome,42.2506,-75.833,299.2,87,75,4.12,US,1691430016
411,'ain deheb,34.8422,1.547,307.03,12,0,4.58,DZ,1691430017
412,timbuktu,16.7735,-3.0074,311.63,23,4,3.58,ML,1691430017
413,keetmanshoop,-26.5833,18.1333,296.66,15,0,1.54,NA,1691430018
414,tulum,20.2167,-87.4667,306.84,52,13,3.38,MX,1691430018
415,creston,41.0586,-94.3614,300.21,94,40,3.6,US,1691430019
416,ingersoll,43.0334,-80.883,295.49,83,100,6.34,CA,1691430020
417,goondiwindi,-28.55,150.3167,283.51,87,28,3.44,AU,1691430020
418,labrador city,52.9463,-66.9114,293.1,52,40,3.09,CA,1691430010
419,neryungri,56.6709,124.6491,289.64,67,97,1.25,RU,1691430021
420,piacabucu,-10.4056,-36.4344,298.53,75,40,5.55,BR,1691430021
421,ubari,26.5921,12.7805,310.76,13,0,5.9,LY,1691430022
422,tsiombe,-25.3,45.4833,293.06,77,0,3.06,MG,1691430022
423,quesnel,52.9999,-122.5029,293.43,64,20,0.0,CA,1691430023
424,bayanhongor,46.7167,100.1167,285.62,54,68,2.13,MN,1691430023
425,shuangjiang,26.1547,109.7138,296.05,94,8,1.06,CN,1691430024
426,naze,28.3667,129.4833,297.66,92,100,17.8,JP,1691430024
427,verkhniy mamon,50.1635,40.3832,301.59,38,6,4.94,RU,1691430025
428,arkhara,49.4212,130.0842,287.44,72,63,2.5,RU,1691430025
429,choyr,46.3611,108.3611,288.43,86,9,4.81,MN,1691430026
430,porto velho,-8.7619,-63.9039,310.18,39,20,0.0,BR,1691429882
431,riosucio,5.4216,-75.7032,296.22,53,87,0.67,CO,1691430026
432,kapuskasing,49.4169,-82.4331,295.2,83,100,1.54,CA,1691430027
433,vidyayevo,69.3191,32.8049,290.79,70,51,4.55,RU,1691430027
434,kailua-kona,19.6406,-155.9956,301.81,72,0,3.09,US,1691429808
435,caala,-12.8525,15.5606,291.78,23,0,0.68,AO,1691430029
436,celestun,20.8667,-90.4,301.6,79,1,5.9,MX,1691430029
437,nova vicosa,-17.8919,-39.3719,297.74,72,81,4.92,BR,1691430030
438,fundulea,44.4667,26.5167,300.53,36,1,3.55,RO,1691430030
439,fujin,47.26,132.0322,290.94,94,89,1.54,CN,1691430031
440,deming,32.2687,-107.7586,307.09,20,0,0.0,US,1691430031
441,tolanaro,-25.0319,46.9987,294.19,78,75,8.23,MG,1691430032
442,keminmaa,65.8596,24.8228,298.02,69,0,6.17,FI,1691430032
443,gaalkacyo,6.7697,47.4308,302.82,43,100,9.74,SO,1691430033
444,bazarnyye mataki,54.8833,49.9333,293.98,59,0,3.38,RU,1691430033
445,juan griego,11.0817,-63.9655,305.22,66,22,6.69,VE,1691430034
446,mettur,11.8,77.8,301.06,65,100,0.92,IN,1691429874
447,mccomb,31.2438,-90.4531,309.27,52,75,0.45,US,1691430034
448,el fahs,36.3742,9.9065,298.28,46,0,7.88,TN,1691430035
449,suomussalmi,64.8869,28.9078,295.09,78,12,6.12,FI,1691430035
450,ystad,55.4297,13.8204,288.56,91,100,13.78,SE,1691430036
451,alofi,-19.0595,-169.9187,296.09,94,100,4.63,NU,1691430036
452,jinghong,21.991,100.7341,296.35,99,100,1.34,CN,1691430037
453,satka,55.0425,59.04,292.26,93,40,0.92,RU,1691430038
454,motueka,-41.1333,173.0167,279.55,75,86,1.48,NZ,1691430038
455,santa barbara,34.7333,-120.0343,305.56,50,0,2.06,US,1691430039
456,topolobampo,25.6,-109.05,306.1,52,0,6.69,MX,1691430039
457,saint david's,12.0333,-61.6667,303.84,79,20,5.14,GD,1691430040
458,coquimbo,-29.9533,-71.3436,289.0,77,75,4.63,CL,1691430040
459,dunda,-8.1167,34.25,292.57,51,58,3.23,TZ,1691430040
460,polyarnyy,69.1989,33.4478,290.2,69,67,5.9,RU,1691430041
461,batu gajah,4.4692,101.0411,300.01,94,40,2.57,MY,1691430041
462,lisieux,49.1667,0.1667,292.68,80,84,2.82,FR,1691430042
463,chebba,35.2372,11.115,300.92,56,0,6.14,TN,1691430042
464,tabanan,-8.5413,115.1252,297.4,84,72,1.92,ID,1691430043
465,corozal,9.3151,-75.2928,304.32,71,100,2.73,CO,1691430043
466,surin,14.8818,103.4936,300.88,99,100,3.77,TH,1691430044
467,xianyang,34.3378,108.7026,297.73,88,100,1.0,CN,1691430044
468,salekhard,66.53,66.6019,290.9,87,9,4.1,RU,1691430044
469,freetown,8.484,-13.2299,298.5,88,100,4.14,SL,1691430045
470,puerto madryn,-42.7692,-65.0385,285.51,41,9,10.82,AR,1691429862
471,namibe,-15.1961,12.1522,291.15,86,6,1.61,AO,1691429946
472,al kharijah,25.4514,30.5464,310.39,10,4,4.22,EG,1691430046
473,shimoda,34.6667,138.95,298.21,85,92,4.29,JP,1691430046
474,sharkawshchyna,55.3713,27.4706,291.88,92,100,6.51,BY,1691430047
475,hernando,28.5419,-82.4582,308.73,62,20,5.14,US,1691430047
476,akrehamn,59.2667,5.1833,286.29,82,75,14.4,NO,1691430049
477,mezhdurechensk,53.6942,88.0603,284.64,88,0,1.07,RU,1691430049
478,siwa oasis,29.2041,25.5195,308.56,28,0,4.85,EG,1691430050
479,olenegorsk,68.15,33.3,289.67,70,28,2.13,RU,1691430050
480,serdar,38.9764,56.2757,307.06,19,20,2.53,TM,1691430050
481,puma,-5.0,34.7333,291.22,55,52,5.79,TZ,1691430051
482,oltinko'l,40.8011,72.1634,297.01,52,62,1.75,UZ,1691430052
483,leava,-14.3,-178.1667,299.93,78,80,1.06,WF,1691430052
484,krompachy,48.9145,20.8751,288.77,92,87,0.68,SK,1691430053
485,chinde,26.8418,88.0763,292.38,97,100,0.96,NP,1691430053
486,dattapur,20.7667,78.1667,298.8,78,98,5.8,IN,1691430053
487,karukh,34.4811,62.5863,296.82,29,0,7.27,AF,1691430054
488,thala,35.5724,8.6703,298.28,36,0,6.83,TN,1691430054
489,hood river,45.7054,-121.5215,299.78,65,0,5.36,US,1691429769
490,nar'yan-mar,67.6713,53.087,281.83,86,8,5.06,RU,1691430055
491,keningau,5.3378,116.1602,295.1,97,71,0.15,MY,1691430055
492,san juan de uraba,8.7592,-76.5297,302.76,81,100,3.29,CO,1691430056
493,yanchep,-31.55,115.6833,292.22,87,85,4.17,AU,1691430056
494,cururupu,-1.8283,-44.8683,303.44,62,70,3.09,BR,1691429911
495,paita,-5.0892,-81.1144,297.53,67,21,5.6,PE,1691430057
496,sisimiut,66.9395,-53.6735,282.8,63,17,2.29,GL,1691430058
497,haiku-pauwela,20.9219,-156.3051,299.4,80,20,8.23,US,1691430058
498,derzhavinsk,51.1,66.3167,294.76,70,87,2.79,KZ,1691430059
499,port saint john's,-31.6229,29.5448,292.56,80,40,4.05,ZA,1691430059
500,tromso,69.6496,18.957,284.16,87,75,6.17,NO,1691430060
501,metlili chaamba,32.2667,3.6333,311.67,10,0,2.06,DZ,1691430060
502,kaa-khem,51.6833,94.7333,291.28,77,100,0.22,RU,1691430061
503,laguna,38.421,-121.4238,309.14,38,0,2.57,US,1691430061
504,golfito,8.639,-83.166,300.25,87,99,1.52,CR,1691430063
505,hobyo,5.3505,48.5268,298.29,81,77,12.71,SO,1691430063
506,kristiansund,63.1115,7.732,285.18,93,75,2.57,NO,1691430064
507,jais,26.25,81.5333,301.04,72,100,5.55,IN,1691430064
508,adam,22.3756,57.5233,307.9,36,78,4.39,OM,1691430065
509,prince rupert,54.3161,-130.3201,289.2,100,100,4.63,CA,1691429969
510,borgomanero,45.7024,8.4581,299.2,63,1,1.5,IT,1691430067
511,lana,46.6124,11.1559,296.83,56,51,2.53,IT,1691430067
512,sao vicente,-23.9631,-46.3919,309.13,25,0,3.6,BR,1691430051
513,fengxiang,47.5833,130.8333,289.04,96,97,3.31,CN,1691430068
514,prado,-17.3411,-39.2208,297.88,71,82,4.65,BR,1691429814
515,srivardhan,18.0333,73.0167,299.93,83,81,3.71,IN,1691430069
516,port lincoln,-34.7333,135.8667,283.77,75,1,3.79,AU,1691430069
517,kachug,53.9606,105.8817,287.19,94,61,0.92,RU,1691430070
518,monte patria,-30.6919,-70.9467,295.45,35,97,1.94,CL,1691430070
519,kavieng,-2.5744,150.7967,299.78,74,98,0.79,PG,1691430071
520,praia da vitoria,38.7333,-27.0667,299.13,83,20,2.56,PT,1691430071
521,esmeraldas,-19.7625,-44.3139,301.73,18,0,2.33,BR,1691429854
522,machali,-34.1833,-70.6667,292.44,59,75,1.02,CL,1691430072
523,rio gallegos,-51.6226,-69.2181,276.18,52,0,2.57,AR,1691430073
524,vrangel',42.7297,133.0839,291.17,81,97,2.84,RU,1691430073
525,baruun-urt,46.6806,113.2792,285.89,95,31,3.26,MN,1691430074
526,pimentel,-6.8367,-79.9342,296.31,73,75,3.6,PE,1691430074
527,kolonia,50.9333,6.95,292.57,63,40,5.14,DE,1691430075
528,fougamou,-1.2154,10.5838,302.0,48,74,1.77,GA,1691430075
529,uribia,11.7139,-72.266,308.55,42,49,8.76,CO,1691430075
530,vila-real,39.9333,-0.1,301.46,73,35,4.64,ES,1691430076
531,badiyah,22.45,58.8,307.09,39,51,4.42,OM,1691430077
532,galesong,-5.3166,119.3661,295.16,77,7,3.46,ID,1691430077
533,eraan,9.0629,117.7016,299.26,85,1,3.08,PH,1691430078
534,saint-joseph,-21.3667,55.6167,292.86,79,76,6.94,RE,1691430078
535,madison,34.7334,-86.5667,304.88,81,100,9.77,US,1691429951
536,bousso,10.4795,16.7117,298.68,77,94,2.12,TD,1691430079
537,mizusawa,39.1333,141.1333,297.33,98,99,1.92,JP,1691430080
538,aykhal,66.0,111.5,288.25,46,100,2.0,RU,1691430080
539,kabare,-2.4683,28.8242,291.67,64,55,0.97,CD,1691430080
540,beroroha,-21.6667,45.1667,294.58,46,24,0.82,MG,1691430081
541,narrabri,-30.3167,149.7833,281.22,83,1,0.89,AU,1691430081
542,vorkuta,67.5,64.0,285.98,88,56,4.69,RU,1691430082
543,guiuan,11.0333,125.7247,302.22,75,29,7.27,PH,1691430082
544,sirte,31.2089,16.5887,300.33,60,0,6.31,LY,1691430083
545,mitsamiouli,-11.3847,43.2844,298.22,77,33,3.2,KM,1691430083
546,richards bay,-28.783,32.0377,291.15,91,2,1.68,ZA,1691430084
547,turaif,31.6725,38.6637,307.29,7,0,3.6,SA,1691430084
548,cill airne,52.05,-9.5167,289.18,77,40,4.63,IE,1691430085
549,coro,11.4045,-69.6734,306.41,58,22,10.19,VE,1691430058
550,lompoc,34.6391,-120.4579,303.16,73,20,1.54,US,1691430086
551,saint-pierre,-21.3393,55.4781,293.47,83,40,9.26,RE,1691430086
552,nema,57.5067,50.5011,292.01,76,49,2.93,RU,1691430086
553,whangarei,-35.7317,174.3239,279.76,96,48,1.57,NZ,1691430087
554,mikhaylovskoye,51.8239,79.7172,291.55,44,5,2.86,RU,1691430088
555,jinzhou,41.1078,121.1417,293.91,83,91,1.42,CN,1691430089
556,weno,7.4515,151.8468,302.12,84,100,3.6,FM,1691430089
557,palmas de monte alto,-14.2672,-43.1619,306.78,20,1,0.91,BR,1691430089
558,buenavista tomatlan,19.2,-102.6,305.86,46,51,1.57,MX,1691430090
559,as sulayyil,20.4607,45.5779,312.29,11,39,4.41,SA,1691430090
560,newport,51.5877,-2.9984,292.08,70,98,5.49,GB,1691430091
561,boca do acre,-8.7522,-67.3978,312.84,25,21,1.01,BR,1691430091
562,saldanha,-33.0117,17.9442,286.18,86,0,4.2,ZA,1691430092
563,bandarbeyla,9.4942,50.8122,298.08,77,28,13.84,SO,1691430093
564,la ronge,55.1001,-105.2842,292.27,55,40,4.12,CA,1691430093
565,kenai,60.5544,-151.2583,288.23,98,100,2.06,US,1691430094
566,kibre mengist,5.8833,38.9833,289.66,73,79,0.85,ET,1691430094
567,sokoni,-6.4333,39.55,297.59,82,0,5.84,TZ,1691430094
568,liman,48.9884,37.8023,299.58,42,28,2.5,UA,1691430095
569,las trojes,14.0667,-85.9833,300.18,63,100,3.34,HN,1691430095
570,anar darah,32.7587,61.654,303.86,18,0,14.97,AF,1691430096
571,madinat ash shamal,26.1293,51.2009,307.66,58,0,4.25,QA,1691430096
572,el granada,37.5027,-122.4694,305.3,68,0,3.09,US,1691430097
573,funafuti,-8.5243,179.1942,302.15,84,75,1.03,TV,1691429923
574,north bend,43.4065,-124.2243,296.63,78,75,4.63,US,1691429814
575,taulaga,-11.0553,-171.0883,300.45,75,7,5.7,AS,1691430098
576,pingnan,23.5543,110.3976,299.11,91,73,1.35,CN,1691430098
577,thetford-mines,46.0937,-71.3054,294.21,75,100,2.14,CA,1691430099
578,labuan,5.2767,115.2417,298.35,88,20,0.0,MY,1691430099
579,albufeira,37.0882,-8.2503,300.06,78,41,3.64,PT,1691430100
580,tailai,46.3833,123.4,291.08,85,85,2.29,CN,1691430100
581,moroni,-11.7022,43.2551,297.99,78,43,0.28,KM,1691430006
582,vernon,50.2581,-119.2691,299.98,44,56,0.89,CA,1691430014
583,mirpur sakro,24.5474,67.6277,301.05,78,72,9.96,PK,1691430101
584,ancud,-41.8697,-73.8203,284.02,66,99,2.17,CL,1691430102
585,zhelezinka,53.54,75.3072,294.15,38,35,2.67,KZ,1691430102
586,wynyard,-41.0,145.7167,280.23,83,16,2.52,AU,1691430103
587,sao bento do sul,-26.2503,-49.3786,299.39,53,15,2.03,BR,1691430103
588,macapa,0.0389,-51.0664,306.14,62,40,4.12,BR,1691430037
589,al hufuf,25.3646,49.5653,312.34,6,0,1.54,SA,1691430104
590,chul'man,56.8479,124.9104,288.64,66,79,1.01,RU,1691430104
591,sault ste. marie,46.5168,-84.3333,298.46,52,0,4.12,CA,1691430009
592,pauini,-7.7136,-66.9764,311.9,25,15,1.79,BR,1691430105
593,bamboo flat,11.7,92.7167,301.2,83,40,4.63,IN,1691430106
594,hurghada,27.2574,33.8129,304.87,32,0,0.81,EG,1691430106
595,ar raqqah,35.95,39.0167,306.8,33,0,8.98,SY,1691430106
